[
    {
        "name":"NP3 SE Entrance",
        "description":"Sundsvall football arena, office space",
        "source":"Human",
        "level":"L3",
        "state":"Offline",
        "modifier":"Static",
        "approval":"Waiting",
        "guid":"8d627909-1e4f-4092-81c4-90d64de14a45",
        "created":"2020-02-02T07:03:31.504018211Z",    
        "longitude": 17.302273,
        "latitude": 62.393406
    },
    {
        "name":"NP3 S Entrance",
        "description":"Sundsvall football arena, stadion and office entrance",
        "source":"Human",
        "level":"L4",
        "state":"Offline",
        "modifier":"Static",
        "approval":"Waiting",
        "guid":"a7f13a1d-4abd-437d-bc05-3f7dc034f1fd",
        "created":"2020-02-02T07:03:31.504018211Z",    
        "longitude": 17.300922,
        "latitude": 62.393560
    },
    {
        "name":"NP3 E Entrance",
        "description":"Sundsvall football arena, stadion entrance",
        "source":"Human",
        "level":"L4",
        "state":"Offline",
        "modifier":"Static",
        "approval":"Waiting",
        "guid":"ce52b54e-4132-439f-99f2-edd398db6817",
        "created":"2020-02-02T07:03:31.504018211Z",    
        "longitude": 17.302562,
        "latitude": 62.393844
    },
    {
        "name":"NP3 W Entrance",
        "description":"Sundsvall football arena, field entrance",
        "source":"Human",
        "level":"L4",
        "state":"Offline",
        "modifier":"Static",
        "approval":"Waiting",
        "guid":"036ce37e-1229-4d73-8173-e934aa2856fa",
        "created":"2020-02-02T07:03:31.504018211Z",    
        "longitude": 17.299657,
        "latitude": 62.393923
    },
    {
        "name":"Circle-K Balder",
        "description":"Circle-K gasoline station",
        "source":"Human",
        "level":"L2",
        "state":"Offline",
        "modifier":"Static",
        "approval":"Waiting",
        "guid":"69258672-5b3b-4702-84ac-8eee00d18312",
        "created":"2020-02-02T07:03:31.504018211Z",    
        "longitude": 17.303989,
        "latitude": 62.393789
    }

]
